[
  {
    "sr": "1",
    "name": "Shri Shankheshwar Parshwanath Bhagvan",
    "hi-Name": "श्री शंखेश्र्वर पार्श्वनाथ",
    "city": "Shankheshwar",
    "state": "Gujarat",
    "address": "Sheth Jivandas Godidas Shankheswar Parshvanath Jain Derasar Trust, Post: Shankheswar-384 246. Taluka: Sami, District: patan, Gujarat, India",
    "lat": 23.508792,
    "lng": 71.787717,
    "googleMapURL": "https://goo.gl/maps/yaDt1GHMnDy6rKf26",
    "jainSite": "https://jainsite.com/jainism_post/1-shankheshwar-parshwanath-bhagvan/"
  },
  {
    "sr": "2",
    "name": "Shri Jirawala Parshwanath Bhagvan",
    "hi-Name": "श्री जीरावला पार्श्वनाथ",
    "city": "Saran ka Khera",
    "state": "Rajasthan",
    "address": "MDR26, Saran Ka Khera, via Abu Road, Taluka:Revadar, District:Sirohi Rajasthan 307514, India ",
    "lat": 24.673555,
    "lng": 72.494290,
    "googleMapURL": "https://goo.gl/maps/Apt9PF5yj3ekP6PC7",
    "jainSite": "https://jainsite.com/jainism_post/2-jirawala-parshwanath/"
  },
  {
    "sr": "3",
    "name": "Shri Kesariya Parshwanath Bhagvan",
    "hi-Name": "श्री केशरीया पार्श्वनाथ",
    "city": "Bhadravati",
    "state": "Maharashtra",
    "address": "Jain Mandir Rd, Ramnagar, Bhadravati, Maharashtra 442902",
    "lat": 20.103910,
    "lng": 79.116051,
    "googleMapURL": "https://goo.gl/maps/WCuKhMDLh2ZD9faTA",
    "jainSite": "https://jainsite.com/jainism_post/3-keshariya-parshwanath/"
  },
  {
    "sr": "4",
    "name": "Shri Stambhan Parshwanath Bhagvan",
    "hi-Name": "श्री स्थंभण पार्श्वनाथ",
    "city": "Khambhat",
    "state": "Gujarat",
    "address": "Shri Sthambhan Parshvanath Jain Derasar Pedhi, Kharwada, Post: Khambhat – 388 620 District: Anand, Gujarat, India",
    "lat": 22.313879,
    "lng": 72.619308,
    "googleMapURL": "https://goo.gl/maps/boss2C5AuHoUd6Ro9",
    "jainSite": "https://jainsite.com/jainism_post/4-stambhan-parshwanath/"
  },
  {
    "sr": "5",
    "name": "Shri Manmohan Parshwanath Bhagvan",
    "hi-Name": "श्री मनमोहन पार्श्वनाथ",
    "city": "Kamboi",
    "state": "Gujarat",
    "address": "Shri Manmohan Parshvanath Shwetambar Jain Tirth, Post: Kamboi – 384 230, Taluka:Chanasma, District: Mehsana, State: Gujarat, India",
    "lat": 23.673917,
    "lng": 72.019557,
    "googleMapURL": "https://goo.gl/maps/SeqvWxBr84tL5BdZ6",
    "jainSite": "https://jainsite.com/jainism_post/5-manmohan-parshwanath-bhagwan/"
  },
  {
    "sr": "6",
    "name": "Shri Jotingada Parshwanath Bhagvan",
    "hi-Name": "श्री जोटिंगडा पार्श्वनाथ",
    "city": "Mujpur",
    "state": "Gujarat",
    "address": "Shri Jotingada Parshvanath Shwetambar Jain Tirth, Post: Munjpur, Taluka: Sami, District:Patan, State: Gujarat-384 240, India",
    "lat": 23.585985,
    "lng": 71.850651,
    "googleMapURL": "https://goo.gl/maps/F5vefkEg34A4A6GC7",
    "jainSite": "https://jainsite.com/jainism_post/6-jotingada-parshwnath/"
  },
  {
    "sr": "7",
    "name": "Shri Shankhla Parshwanath Bhagvan",
    "hi-Name": "श्री शंखला पार्श्वनाथ",
    "city": "Shankhalpur",
    "state": "Gujarat",
    "address": "Shri Shankhla Parshvanath Shwetambar Jain Tirth, Patidar Mahajan ki gali, Post:Shankalpur, Station: Bechraji, Taluka: Chanasma, District: Mehsana, State: Gujarat-384 210, India",
    "lat": 23.521075,
    "lng": 72.030982,
    "googleMapURL": "https://goo.gl/maps/oBABa66MWGLxqjXe7",
    "jainSite": "https://jainsite.com/jainism_post/7-shankhla-parshwanath/"
  },
  {
    "sr": "8",
    "name": "Shri Gambhira Parshwanath Bhagvan",
    "hi-Name": "श्री गंभीरा पार्श्वनाथ",
    "city": "Gambhu",
    "state": "Gujarat",
    "address": "Shri Gambhu Jain Shwetambar Murtipujak Sangha Trust, Bazaar Jain Derasar, Post:Gambhu – 384 011, Taluka: Becharaji, District: Mehsana, Gujarat, India",
    "lat": 23.617046,
    "lng": 72.192156,
    "googleMapURL": "https://goo.gl/maps/v3VrVHScuwvYqYP47",
    "jainSite": "https://jainsite.com/jainism_post/8-gambhira-parshwanath/"
  },
  {
    "sr": "9",
    "name": "Shri Gadaliya Parshwanath Bhagvan",
    "hi-Name": "श्री गाडलिया पार्श्वनाथ",
    "city": "Mandal",
    "state": "Gujarat",
    "address": "Jalisana, Mandal, Taluka:Viramgam, Gujarat 382130, India",
    "lat": 23.288768,
    "lng": 71.918496,
    "googleMapURL": "https://goo.gl/maps/1v89CduK5DcsDb3Q8",
    "jainSite": "https://jainsite.com/jainism_post/9-gadliya-parshwanath/"
  },
  {
    "sr": "10",
    "name": "Shri Kalikund Parshwanath Bhagvan",
    "hi-Name": "श्री कलिकुंड पार्श्वनाथ",
    "city": "Dholka",
    "state": "Gujarat",
    "address": "Shri Kalikund Parshvanath Jain Shwetambar Tirth, c/o Shri Tejpal Vastupal Jain Charitable Trust, Post: Dholka – 387 810, District: Ahmedabad, State: Gujarat, India",
    "lat": 22.741562,
    "lng": 72.449886,
    "googleMapURL": "https://goo.gl/maps/XzneQp48uAhbe1i47",
    "jainSite": "https://jainsite.com/jainism_post/10-kalikund-prashwanath/"
  },
  {
    "sr": "11",
    "name": "Shri Shamla Parshwanath Bhagvan",
    "hi-Name": "श्री शामला पार्श्वनाथ",
    "city": "Ahmedabad",
    "state": "Gujarat",
    "address": "Shri Shyamala Parshvanath Shwetambar Jain Tirth, Near Madan Gopal ki Haveli, Shyamalaji ni Pole, Ahmedabad: 380 001. Gujarat, India",
    "lat": 23.020263,
    "lng": 72.591122,
    "googleMapURL": "https://goo.gl/maps/dzkRKx2BbU4gjFAo6",
    "jainSite": "https://jainsite.com/jainism_post/11-shamla-parshwanath/"
  },
  {
    "sr": "12",
    "name": "Shri Muleva Parshwanath Bhagvan",
    "hi-Name": "श्री मूलेवा पार्श्वनाथ",
    "city": "Ahmedabad",
    "state": "Gujarat",
    "address": "Shri Muleva Parshvanath Shwetambar Jain Tirth, Relief Road, near Panjrapole,  Ahmedabad – 380 001. Gujarat, India",
    "lat": 23.028253,
    "lng": 72.589099,
    "googleMapURL": "https://goo.gl/maps/Jtm6drqHErssi9Wt9",
    "jainSite": "https://jainsite.com/jainism_post/12-muleva-parshwanath/"
  },
  {
    "sr": "13",
    "name": "Shri Hrimkar Parshwanath Bhagvan",
    "hi-Name": "श्री ॐकार पार्श्वनाथ",
    "city": "Ahmedabad",
    "state": "Gujarat",
    "address": "Shri Hrimkar Parshvanath Jain Temple, Kalushi ki Pole, Jain Derasar, Ahmedabad: 380 001 Gujarat, India",
    "lat": 23.025274,
    "lng": 72.590463,
    "googleMapURL": "https://goo.gl/maps/j7Pqd7Yuh9qAmGpKA",
    "jainSite": "https://jainsite.com/jainism_post/13-hinkar-parshwanath/"
  },
  {
    "sr": "14",
    "name": "Shri Sukhsagar Parshwanath Bhagvan",
    "hi-Name": "श्री सुखसागर पार्श्वनाथ",
    "city": "Ahmedabad",
    "state": "Gujarat",
    "address": "Shri SukhSagar Parshvanath Shwetambar Jain Temple, Shri Simandar Swami ni Khadki,Doshiwada ki Pole, Indrakot, Ahmedabad – 380 001 Gujarat, India",
    "lat": 23.005231,
    "lng": 72.554887,
    "googleMapURL": "https://goo.gl/maps/3DdAeoint6AYnKT97",
    "jainSite": "https://jainsite.com/jainism_post/14-shukhsagar-parshwanath/"
  },
  {
    "sr": "15",
    "name": "Shri Muhari Parshwanath Bhagvan",
    "hi-Name": "श्री मुहरी पार्श्वनाथ",
    "city": "Tintoyi",
    "state": "Gujarat",
    "address": "Shri Muhari Parshvanath Shwetambar Jain Tirth, Post: Tintoi – 383250. Taluka: Modasa,District: Sabarkantha, Gujarat, India",
    "lat": 23.612931,
    "lng": 73.334882,
    "googleMapURL": "https://goo.gl/maps/1Qih8tFCAXj9HgFC6",
    "jainSite": "https://jainsite.com/jainism_post/15-muhari-parshwanath/"
  },
  {
    "sr": "16",
    "name": "Shri Poshina Parshwanath Bhagvan",
    "hi-Name": "श्री पोसीना पार्श्वनाथ",
    "city": "Nana Poshina",
    "state": "Gujarat",
    "address": "Shri Posina Parshvanath Shwetambar Jain Tirth, Sheth Shri Anandji Mangalji ki Pedhi, Post: Nana Posina, Taluka: Idar, District: Sabarkantha, Gujarat – 383 421. India",
    "lat": 23.755648,
    "lng": 73.114127,
    "googleMapURL": "https://goo.gl/maps/ccteGe7hXPtYh2qs9",
    "jainSite": "https://jainsite.com/jainism_post/16-poshina-parshwanath/"
  },
  {
    "sr": "17",
    "name": "Shri Vighnapahar Poshina Parshwanath Bhagvan",
    "hi-Name": "श्री विघ्नहरापहार पार्श्वनाथ",
    "city": "Mota Poshina",
    "state": "Gujarat",
    "address": "Shri Vighnapahaar Parshvanath Swetambar Jain Tirth, Shri Mota Posinaji Jain Murtipujak Derasar Trust, Post: Mota Posina-383 422, Taluka: Khedbrahma, District: Sabarkantha, Gujarat, India",
    "lat": 24.374864,
    "lng": 73.032335,
    "googleMapURL": "https://goo.gl/maps/iFcvhKKxPtPi4LkDA",
    "jainSite": "https://jainsite.com/jainism_post/17-vidhnaprahar-parshwanath/"
  },
  {
    "sr": "18",
    "name": "Shri Sfuling Parshwanath Bhagvan",
    "hi-Name": "श्री स्वफुल्लिंग पार्श्वनाथ",
    "city": "Vijapur",
    "state": "Gujarat",
    "address": "Shri Sfulling Parshvanath Shwetambar Jain Tirth Pedhi, Buddhisagarsuri Jain Samadhi Mandir, Station Road, Post: Vijapur – 382870. District: Mehsana, Gujarat, India",
    "lat": 23.556375,
    "lng": 72.749237,
    "googleMapURL": "https://goo.gl/maps/iFcvhKKxPtPi4LkDA",
    "jainSite": "https://jainsite.com/jainism_post/18-sfooling-parshwanath/"
  },
  {
    "sr": "19",
    "name": "Shri Nagfana Parshwanath Bhagvan",
    "hi-Name": "श्री नागफणा पार्श्वनाथ",
    "city": "Vihar, Vijapur",
    "state": "Gujarat",
    "address": "Shri Naagfana Jain Shwetambar Murtipujak Trust, Post: Vihar, Taluk: Vijapur, District:Mehsana, North Gujarat, India",
    "lat": 23.542828,
    "lng": 72.655377,
    "googleMapURL": "https://goo.gl/maps/v9wFqL5MXygcxn1j6",
    "jainSite": "https://jainsite.com/jainism_post/19-nagfaga-parshwanath/"
  },
  {
    "sr": "20",
    "name": "Shri Kalyan Parshwanath Bhagvan",
    "hi-Name": "श्री कल्याण पार्श्वनाथ",
    "city": "Visnagar",
    "state": "Gujarat",
    "address": "Shri Kalyan Parshvanath Shwetambar Jain Tirth, Kada Darwaza, Post: Visnagar, District: Mehsana, Gujarat: 384 315,India",
    "lat": 23.695689,
    "lng": 72.553771,
    "googleMapURL": "https://goo.gl/maps/guQWmjXEREYMKnrZA",
    "jainSite": "https://jainsite.com/jainism_post/20-kalyan-parshwanath/"
  },
  {
    "sr": "21",
    "name": "Shri Manoranjan Parshwanath Bhagvan",
    "hi-Name": "श्री मनोरंजन पार्श्वनाथ",
    "city": "Mehsana",
    "state": "Gujarat",
    "address": "Shri Manoranjan Parshvanath Jain Derasar, Station Road, Mehsana- 384 001, District:Mehsana, North Gujarat,India",
    "lat": 23.602046,
    "lng": 72.392465,
    "googleMapURL": "https://goo.gl/maps/F4TfozdFciACMeu47",
    "jainSite": "https://jainsite.com/jainism_post/21-Manoranjan-parshwanath/"
  },
  {
    "sr": "22",
    "name": "Shri Sultan Parshwanath Bhagvan",
    "hi-Name": "श्री सुलतान पार्श्वनाथ",
    "city": "Siddhpur",
    "state": "Gujarat",
    "address": "Shri Sidhpur Shwetambar Jain Murtipujak Sangh, Post: Sidhpur, District: Patan, Gujarat – 384 151,India",
    "lat": 23.967422,
    "lng": 72.371316,
    "googleMapURL": "https://goo.gl/maps/DbceutY4FSeHccJ6A",
    "jainSite": "https://jainsite.com/jainism_post/22-sultan-parshwanath/"
  },
  {
    "sr": "23",
    "name": "Shri Dosla Parshwanath Bhagvan",
    "hi-Name": "श्री डोसला पार्श्वनाथ",
    "city": "Ghota Saklana (Dohila)",
    "state": "Gujarat",
    "address": "Shri Dosla Parshvanath Shwetambar Jain Tirth, Post: Dhota Saklana, Taluka: Vadgaon, District: Banaskantha,  State: Gujarat- 385421, India",
    "lat": 24.077681,
    "lng": 72.539926,
    "googleMapURL": "https://goo.gl/maps/F2Bw7UQT3vLwp6ic9",
    "jainSite": "https://jainsite.com/jainism_post/23-dosla-parshwanath/"
  },
  {
    "sr": "24",
    "name": "Shri Pallavia Parshwanath Bhagvan",
    "hi-Name": "श्री पल्लविया पार्श्वनाथ",
    "city": "Palanpur",
    "state": "Gujarat",
    "address": "Shri Pallaviya Parshvanath Jain Shwetambar Mandir, Post: Palanpur, District:Banaskantha – 385 001. State: Gujarat,India",
    "lat": 24.171083,
    "lng": 72.438244,
    "googleMapURL": "https://goo.gl/maps/ZJSH9R6Fw1J4NX1H6",
    "jainSite": "https://jainsite.com/jainism_post/24-pallviya-parshwanath/"
  },
  {
    "sr": "25",
    "name": "Shri Bhiladiya Parshwanath Bhagvan",
    "hi-Name": "श्री भिलडीया पार्श्वनाथ",
    "city": "Bhildi",
    "state": "Gujarat",
    "address": "Shri Bhiladiya Parshvanath Shwetambar Jain Tirth, Post: Bhildi, Taluk: Deesa, via-Palanpur, District: Banaskantha, Gujarat-385 530,India",
    "lat": 24.187293,
    "lng": 72.006360,
    "googleMapURL": "https://goo.gl/maps/DvokSrputJ8JYhVV9",
    "jainSite": "https://jainsite.com/jainism_post/25-bhladiya-parshwanath/"
  },
  {
    "sr": "26",
    "name": "Shri Panchasara Parshwanath Bhagvan",
    "hi-Name": "श्री पंचासरा पार्श्वनाथ",
    "city": "Patan",
    "state": "Gujarat",
    "address": "Shri Panchasara Parshvanath Jain Derasar Trust, Hemchandracharya Road, Piplani Sheri,Patan – 384265, District – Mehsana, Gujarat,India",
    "lat": 23.853963,
    "lng": 72.117094,
    "googleMapURL": "https://goo.gl/maps/YQQ2L33oQdPT1bon7",
    "jainSite": "https://jainsite.com/jainism_post/26-panchasara-parshwanath/"
  },
  {
    "sr": "27",
    "name": "Shri Koka Parshwanath Bhagvan",
    "hi-Name": "श्री कोका पार्श्वनाथ",
    "city": "Patan",
    "state": "Gujarat",
    "address": "Shri Koka Parshvanath Shwetambar Jain Temple, Koka no Pado, Golsheri, Post: Patan, District: Patan, North Gujarat-384 265, India",
    "lat": 23.852167,
    "lng": 72.116165,
    "googleMapURL": "https://goo.gl/maps/iYWdJgRUbP1aoKbC9",
    "jainSite": "https://jainsite.com/jainism_post/27-koka-parshwanath/"
  },
  {
    "sr": "28",
    "name": "Shri Kankan Parshwanath Bhagvan",
    "hi-Name": "श्री कंकण पार्श्वनाथ",
    "city": "Patan",
    "state": "Gujarat",
    "address": "Shri Kankan Parshvanath Shwetambar Jain Temple, Shri Dhandherwada Mohalla Property Trust, Post: Patan,  District: Mehsana, State: Gujarat- 384 295, India",
    "lat": 23.851463,
    "lng": 72.116372,
    "googleMapURL": "https://goo.gl/maps/JFuJVhH5KxdNqSdN9",
    "jainSite": "https://jainsite.com/jainism_post/28-kankan-parshwanath/"
  },
  {
    "sr": "29",
    "name": "Shri Ghiya Parshwanath Bhagvan",
    "hi-Name": "श्री घीया पार्श्वनाथ",
    "city": "Shahpur",
    "state": "Maharashtra",
    "address": "Manas Mandir Jain Temple, Manas Mandir Jain Road, Asangaon, Maharashtra 421601, India",
    "lat": 19.465545,
    "lng": 73.294568,
    "googleMapURL": "https://goo.gl/maps/WpjGqkZN1rX6CWG8A",
    "jainSite": "https://jainsite.com/jainism_post/29-dhiya-parshwanath/"
  },
  {
    "sr": "30",
    "name": "Shri Naranga Parshwanath Bhagvan",
    "hi-Name": "श्री नारंगा पार्श्वनाथ",
    "city": "Patan",
    "state": "Gujarat",
    "address": "Egara, Gungdipati Part, Gujarat 384265, India",
    "lat": 23.853996,
    "lng": 72.117097,
    "googleMapURL": "https://goo.gl/maps/7M4F3enK3TkdNYWU6",
    "jainSite": "#"
  },
  {
    "sr": "31",
    "name": "Shri Padmavati Parshwanath Bhagvan",
    "hi-Name": "श्री पद्मावती पार्श्वनाथ",
    "city": "Naroda",
    "state": "Gujarat",
    "address": "Shri Godhiji Parshvanath Shwetambar Jain Tirth, Naroda Bazaar, Post:  Naroda, Ahmedabad: 382 325, Gujarat, India",
    "lat": 23.073010,
    "lng": 72.656896,
    "googleMapURL": "https://goo.gl/maps/BwcG8iqYM2t5i3LC7",
    "jainSite": "https://jainsite.com/jainism_post/31-padmavati-parshwanath/"
  },
  {
    "sr": "32",
    "name": "Shri Dhingadmal Parshwanath Bhagvan",
    "hi-Name": "श्री धींगडमल्ल पार्श्वनाथ",
    "city": "Patan",
    "state": "Gujarat",
    "address": "Shri Dhingadmal Parshvanath Shwetambar Jain Tirth, Jogivado,  Post: Patan, District: Patan, State: North Gujarat- 384 295,India",
    "lat": 23.846066,
    "lng": 72.121303,
    "googleMapURL": "https://goo.gl/maps/eivRbhWqojt8JHJc9",
    "jainSite": "https://jainsite.com/jainism_post/32-dhingadmal-parshwanath/"
  },
  {
    "sr": "33",
    "name": "Shri Vadi Parshwanath Bhagvan",
    "hi-Name": "श्री वाडी पार्शवनाथ",
    "city": "Patan",
    "state": "Gujarat",
    "address": "Shri Vadi Parshvanath Shwetambar Jain Tirth, Zaveripado, Post: Patan,  District: Patan, State: North Gujarat-384 – 295,India",
    "lat": 23.853227,
    "lng": 72.118664,
    "googleMapURL": "https://goo.gl/maps/THJwheA8XegCMAzt5",
    "jainSite": "https://jainsite.com/jainism_post/33-wadi-parshwanath/"
  },
  {
    "sr": "34",
    "name": "Shri Ratnachintamani Parshwanath Bhagvan",
    "hi-Name": "श्री रत्नचिंतामणि पार्शवनाथ",
    "city": "Khambhat",
    "state": "Gujarat",
    "address": "Manek Chowk, Khambhat, Gujarat,India",
    "lat": 22.312383,
    "lng": 72.619102,
    "googleMapURL": "https://goo.gl/maps/QKaFKXW893XSnLBh7",
    "jainSite": "#"
  },
  {
    "sr": "35",
    "name": "Shri Tankla Parshwanath Bhagvan",
    "hi-Name": "श्री टांकला पार्शवनाथ",
    "city": "Patan",
    "state": "Gujarat",
    "address": "Shri Taankala Parshvanath Shwetambar Jain Temple, Dunkh Mehta No Pado, Post: Patan, District: Patan,  North Gujarat- 384 295,India",
    "lat": 23.851485,
    "lng": 72.117308,
    "googleMapURL": "https://goo.gl/maps/imNsfKxBc5Ekt29v8",
    "jainSite": "https://jainsite.com/jainism_post/35-tankla-parshwanath/"
  },
  {
    "sr": "36",
    "name": "Shri Bhidbhanjan Parshwanath Bhagvan",
    "hi-Name": "श्री भीड़भंजन  पार्शवनाथ",
    "city": "Kheda",
    "state": "Gujarat",
    "address": "Shri Bheedbhanjan Parshvanath Jain Shwetambar Tirth Pedhi, Patelvado, Near main post office, Post: Kheda, District: Kheda – 387 411, Gujarat,India",
    "lat": 22.752882,
    "lng": 72.683979,
    "googleMapURL": "https://goo.gl/maps/Jr1Se7Mfry1Hethq8",
    "jainSite": "https://jainsite.com/jainism_post/36-bhidbhanjan-parshwanath/"
  },
  {
    "sr": "37",
    "name": "Shri Umarvadi Parshwanath Bhagvan",
    "hi-Name": "श्री उमरवाड़ी   पार्शवनाथ",
    "city": "Surat",
    "state": "Gujarat",
    "address": "21, Gopipura Main Rd, Gopipura, Surat, Gujarat 395001, India",
    "lat": 21.193369,
    "lng": 72.824779,
    "googleMapURL": "https://goo.gl/maps/DKitMcb4WRNSnE3J6",
    "jainSite": "#"
  },
  {
    "sr": "38",
    "name": "Shri Kansari Parshwanath Bhagvan",
    "hi-Name": "श्री कंसारी पार्श्वनाथ",
    "city": "Khambhat",
    "state": "Gujarat",
    "address": "Shri Kansari Parshvanath Shwetambar Jain Temple, Kharvada, Post: Khambhat, District: Kheda, Gujarat – 388 620, India",
    "lat": 22.313989,
    "lng": 72.619888,
    "googleMapURL": "https://goo.gl/maps/W4C12v1JJ8xxGeeS8",
    "jainSite": "https://jainsite.com/jainism_post/38-kansari-parshwanath/"
  },
  {
    "sr": "39",
    "name": "Shri Som Chintamani Parshwanath Bhagvan",
    "hi-Name": "श्री सोम चिंतामणि",
    "city": "Khambhat",
    "state": "Gujarat",
    "address": "Shri Som Chintamani Parshvanath Shwetambar Jain Temple, Sanghvi ki Pole, Post: Khambhat, District: Kheda, Gujarat – 388 620. India",
    "lat": 22.316973,
    "lng": 72.619617,
    "googleMapURL": "https://goo.gl/maps/RsKsbyJ1xcX3VJaZ8",
    "jainSite": "https://jainsite.com/jainism_post/39-som-chintamani-parshwanath/"
  },
  {
    "sr": "40",
    "name": "Shri Dukhbhanjan Parshwanath",
    "hi-Name": "श्री दुखभंजन पार्श्वनाथ",
    "state": "Gujarat",
    "city": "Surat",
    "address": "1/3771, Annie Besant Rd, Sonifaliya, Chowk Bazar, opp. Annie Besant Hall, Chandan Baug, Gopipura, Surat, Gujarat 395003",
    "lat": "21.194486",
    "lng": "72.822283",
    "googleMapURL": "https://goo.gl/maps/FuRs29JheBfNGrAq6",
    "jainSite": "#"
  },
  {
    "sr": "41",
    "name": "Shri Varanasi Parshwanath",
    "hi-Name": "श्री वाराणसी पार्श्वनाथ",
    "city": "Varanasi",
    "state": "Uttar Pradesh",
    "address": "Shri Varanasi Parshvanath Shwetambar Jain Tirth, Shri Jain Shwetambar Tirth Society,B – 20/46, Bhelupur, Varanasi – 221 010, Uttar Pradesh, India",
    "lat": "25.299244",
    "lng": "83.000323",
    "googleMapURL": "https://goo.gl/maps/NUNDVuburHUqibCV7",
    "jainSite": "https://jainsite.com/jainism_post/41-varanashi-parshwanath/"
  },
  {
    "sr": "42",
    "name": "Shri Pragatprabhavi Parshwanath",
    "hi-Name": "श्री प्रगट प्रभावी पार्श्वनाथ",
    "city": "Dabhoi",
    "state": "Gujarat",
    "address": "Shri Pragat Prabhavi Parshvanath Shwetambar Jain Tirth, Seth Rikhabchand Kalyanchand ki Pedhi, Pandiyaseri, Shrimali Vaga, Post: Dabhoi,  District: Vadodara – 391 110.  Gujarat",
    "lat": "22.131089",
    "lng": "73.422063",
    "googleMapURL": "https://goo.gl/maps/riw4G7qznWmMHH2F8",
    "jainSite": "https://jainsite.com/jainism_post/42-pragatprabhavi-parshwanath/"
  },
  {
    "sr": "43",
    "name": "Shri Lodhan Parshwanath",
    "hi-Name": "श्री लोढण पार्श्वनाथ",
    "city": "Dabhoi",
    "state": "Gujarat",
    "address": "Seth Shri Devchandji Dharamchandraji Pedhi, Shri Lodhan Parshvanath Shwetambar Jain Tirth,  Shrimali Vaaga, Shamlaji in Sheri, (Darbhavati), Post: Dabhoi: 391 110, District: Vadodara  Gujarat",
    "lat": "22.131782",
    "lng": "73.422461",
    "googleMapURL": "https://goo.gl/maps/FEv4GQJqkumDVb6i8",
    "jainSite": "https://jainsite.com/jainism_post/43-lodhan-parshwanath/"
  },
  {
    "sr": "44",
    "name": "Shri Amizara Parshwanath",
    "hi-Name": " श्री अमिझरा पार्श्वनाथ",
    "city": "Gandhar",
    "state": "Gujarat",
    "address": "The Vadali Jain Shwetambar Murtipajak Sangha, Post: Vadali – 383 235, Sabarkantha, Gujarat",
    "lat": "21.884488",
    "lng": "72.659797",
    "googleMapURL": "https://goo.gl/maps/GCvoeUjV2D1DjFe26",
    "jainSite": "https://jainsite.com/jainism_post/44-amizara-parshwanath/"
  },
  {
    "sr": "45",
    "name": "Shri Kalhara Parshwanath",
    "hi-Name": "श्री कल्हारा पार्श्वनाथ",
    "city": "Bharuch",
    "state": "Gujarat",
    "address": "Shri Munisuvrat Swami Shwetambar Jain Derasar Pedhi, Shri Kalhara Parshvanath Shwetambar Jain Tirth, Shrimalipole, Bharuch – 392 001, Gujarat",
    "lat": "21.694462",
    "lng": "72.985071",
    "googleMapURL": "https://goo.gl/maps/Jt7kgNpts5jDJt8bA",
    "jainSite": "https://jainsite.com/jainism_post/45-kalhara-parshwanath/"
  },
  {
    "sr": "46",
    "name": "Shri Champa Parshwanath",
    "hi-Name": "श्री चंपा पार्श्वनाथ",
    "city": "Patan",
    "state": "Gujarat",
    "address": "Shri Champa Parshvanath Shwetambar Jain Temple, Salvi Wada, Narayanji No Pado,Golwad Sheri, Patan-384 265, Gujarat",
    "lat": "23.85435",
    "lng": "72.110976",
    "googleMapURL": "https://goo.gl/maps/Fo4WeRwdbPKRYEsk8",
    "jainSite": "https://jainsite.com/jainism_post/46-champa-parshwanath/"
  },
  {
    "sr": "47",
    "name": "Shri Surajmandan Parshwanath",
    "hi-Name": "श्री सूरज मंडण पार्श्वनाथ",
    "city": "Surat",
    "state": "Gujarat",
    "address": "Shri Suraj Mandan Parshvanath Jain Temple, Haathi Wali Gali, Gopipura, Surat – 395 001. Gujarat, India",
    "lat": "21.147915",
    "lng": "72.778498",
    "googleMapURL": "https://goo.gl/maps/M6tLHumStQFJrpJx7",
    "jainSite": "https://jainsite.com/jainism_post/47-surajmandan-parshwanath/"
  },
  {
    "sr": "48",
    "name": "Shri Sahastrafana Parshwanath",
    "hi-Name": "श्री सहस्त्रफणा पार्श्वनाथ",
    "city": "Surat",
    "state": "Gujarat",
    "address": "Shri Sheetalnath Jain Derasar, Shri Sahastrafana Parshvanath Jain Derasar, Gopipura, Subhash Chowk, Surat, Gujarat",
    "lat": "21.193777",
    "lng": "72.825628",
    "googleMapURL": "https://goo.gl/maps/AetqijEE9XYY9QGf6",
    "jainSite": "https://jainsite.com/jainism_post/48-sahastrafarma-parshwanath/"
  },
  {
    "sr": "49",
    "name": "Shri Navsari Parshwanath",
    "hi-Name": "श्री नवसारी पार्श्वनाथ",
    "city": "Navsari",
    "state": "Gujarat",
    "address": "Shri Navsari Parshvanath Shwetambar Jain Tirth, Madhumati, Mota Bazaar,Navsari: 396 445, District: Valsad, Gujarat",
    "lat": "20.953382",
    "lng": "72.930955",
    "googleMapURL": "https://goo.gl/maps/893tKoecmFGbw4Ry6",
    "jainSite": "https://jainsite.com/jainism_post/49-navsari-parshwanath/"
  },
  {
    "sr": "50",
    "name": "Shri Dokadiya Parshwanath",
    "hi-Name": "श्री दोकडीया पार्श्वनाथ",
    "city": "Prabhas Patan",
    "state": "Gujarat",
    "address": "Shri Dokadiya Parshvanath Shwetambar Jain Tirth, c/o Shri Prabhas Patan Shwetambar Jain Murtipujak Sangh, Derasar in Khadki, Post: Prabhas Patan, Taluk: Veraval, District:Junagadh – 362 268, Saurashtra, Gujarat",
    "lat": "20.890231",
    "lng": "70.40246",
    "googleMapURL": "https://goo.gl/maps/bYJET9M2KRa3YN8r7",
    "jainSite": "https://jainsite.com/jainism_post/50-dokdiya-parshwanath/"
  },
  {
    "sr": "51",
    "name": "Shri Chorvad Parshwanath",
    "hi-Name": "श्री चोरवाडी पार्श्वनाथ",
    "city": "Chorvad",
    "state": "Gujarat",
    "address": "Shri Chorvadi Parshvanath Shwetambar Jain Temple, Aathamno darwazo, Post: Chorvad,Taluk: Veraval, District: Junagadh, Saurashtra, State: Gujarat-362 250",
    "lat": "21.028624",
    "lng": "70.231104",
    "googleMapURL": "https://goo.gl/maps/yWF4vsnwnvMP8BPp7",
    "jainSite": "https://jainsite.com/jainism_post/51-chorwadi-parshwanath/"
  },
  {
    "sr": "52",
    "name": "Shri Navpallav Parshwanath",
    "hi-Name": "श्री नवपल्लव पार्शवनाथ",
    "city": "Mangrol",
    "state": "Gujarat",
    "address": "Shri Navpallav Parshvanath Shwetambar Jain Tirth, Kampani Faliya, Post: Mangrole, Taluk: Mangrole, District: Junagadh, State: Gujarat-362 225",
    "lat": "21.122279",
    "lng": "70.115024",
    "googleMapURL": "https://goo.gl/maps/uukhnNpFyr5f68md7",
    "jainSite": "https://jainsite.com/jainism_post/52-navpallav-parshwanath/"
  },
  {
    "sr": "53",
    "name": "Shri Amrutjara Parshwanath",
    "hi-Name": "श्री अमृतझरा पार्श्वनाथ",
    "city": "Jambhaanvad",
    "state": "Gujarat",
    "address": "Shri Amrutjara Parshwanath Jinalaya, Bhanvad, Gujarat 360510",
    "lat": "21.931368",
    "lng": "69.778747",
    "googleMapURL": "https://goo.gl/maps/PMh9XqPBeBGoPcdq9",
    "jainSite": "https://jainsite.com/jainism_post/53-amrutjara-parshwanath/"
  },
  {
    "sr": "54",
    "name": "Shri Bareja Parshwanath",
    "hi-Name": "श्री बलेजा पार्श्वनाथ",
    "city": "Bareja",
    "state": "Gujarat",
    "address": "Shri Bareja Parshvanath Shwetambar Jain Tirth, Shri Porbandar Jain Tapagaccha Sangh Trust, Post: Barej, via – Madhalpur, District: Porbandar, State: Gujarat-360 575",
    "lat": "21.376898",
    "lng": "69.870482",
    "googleMapURL": "https://goo.gl/maps/XbDgMPsDUD4LUMseA",
    "jainSite": "https://jainsite.com/jainism_post/54bareja-parshwanath/"
  },
  {
    "sr": "55",
    "name": "Shri Saptfana Parshwanath",
    "hi-Name": "श्री सप्तफणा पार्श्वना",
    "city": "Bhansal",
    "state": "Gujarat",
    "address": "Shri Saptfana Parshvanath Shwetambar Jain Tirth, Panjrapole, Post: Moti Bhansaal, District: Jamnagar, (Saurashtra) Gujarat-361 012",
    "lat": "22.320306",
    "lng": "70.167529",
    "googleMapURL": "https://goo.gl/maps/2zt7t7ch1xjhFzQh7",
    "jainSite": "https://jainsite.com/jainism_post/55-saptfaga-parshwanath/"
  },
  {
    "sr": "56",
    "name": "Shri Bhabha Parshwanath",
    "hi-Name": "श्री भाभा पार्श्वनाथ",
    "city": "Jamnagar",
    "state": "Gujarat",
    "address": "Shri Bhabha Parshvanath Shwetambar Jain Tirth, Seth Raishi Vardhaman Jain Pedhi, Choriwala derasar, Post: Jamnagar, District: Saurashtra, State: Gujarat-361 001",
    "lat": "22.46456",
    "lng": "70.077829",
    "googleMapURL": "https://goo.gl/maps/ygWRuVj1urxpfPSK7",
    "jainSite": "https://jainsite.com/jainism_post/56-bhabha-parshwanath/"
  },
  {
    "sr": "57",
    "name": "Shri Bhadreshwar Parshwanath",
    "hi-Name": "श्री भद्रेश्वर पार्श्वनाथ",
    "city": "Bhadreshwar",
    "state": "Gujarat",
    "address": "Shri Vardhaman Kalyanji Trust, Shri Vasai Jain Tirth, Mahavirnagar, post: Bhadreshwar – 370 441. District: Kutch, Gujarat",
    "lat": "22.911513",
    "lng": "69.904213",
    "googleMapURL": "https://goo.gl/maps/L7MUrQXyaf9eVBkZ6",
    "jainSite": "https://jainsite.com/jainism_post/57-bhadreshwar-parshwanth/"
  },
  {
    "sr": "58",
    "name": "Shri Dhrutkallol Parshwanath",
    "hi-Name": "श्री धृत कल्लोल पार्श्वनाथ",
    "city": "Suthri",
    "state": "Gujarat",
    "address": "Shri Suthari Ghrutkalol Parshvanath Shwetambar jain Derasar Pedhi, Post: Suthari-370490. Taluk: Abdasa, District: Kutch, Gujarat",
    "lat": "23.033225",
    "lng": "68.914404",
    "googleMapURL": "https://goo.gl/maps/RjQw2JHHUpXCusuu7",
    "jainSite": "https://jainsite.com/jainism_post/58-dhutaklol-parshwanath/"
  },
  {
    "sr": "59",
    "name": "Shri Bhaybhanjan Parshwanath",
    "hi-Name": "श्री भयभंजन पार्श्वनाथ",
    "city": "Bhinmal",
    "state": "Rajasthan",
    "address": "Shri Bhayabhanjan Parshvanath Shwetambar Jain Trust, Hathiyon ki pole, Post: Bhinmal, District: Jalore, State: Rajasthan-343 029",
    "lat": "25.00575",
    "lng": "72.265096",
    "googleMapURL": "https://goo.gl/maps/KVmmc1SNSdifkTsu5",
    "jainSite": "https://jainsite.com/jainism_post/59-bhaybhanja-parshwanath/"
  },
  {
    "sr": "60",
    "name": "Shri Lodrva Parshwanath",
    "hi-Name": "श्री लोद्रवा पार्श्वनाथ",
    "city": "Jaisalmer",
    "state": "Rajasthan",
    "address": "Shri Jaisalmer Lodravpur Parshvanath Jain Shwetamber Trust, Post: Lodravpur, via – Jaisalmer, District: Jaisalmer – 345 001. Rajasthan",
    "lat": "26.912205",
    "lng": "70.912312",
    "googleMapURL": "https://goo.gl/maps/4uFLrFNCViBxGzc99",
    "jainSite": "https://jainsite.com/jainism_post/60-lodharva-parshwanth/"
  },
  {
    "sr": "61",
    "name": "Shri Sankatharan Parshwanath",
    "hi-Name": "श्री संकटहरण पार्श्वनाथ",
    "city": "Jaisalmer",
    "state": "Rajasthan",
    "address": "Shri Sankatharan Parshvanath Shwetambar Jain Tirth, Shri Suparshvanath Shwetambar Jain Tirth,  Kothari Pado, Jaisalmer- 345 001,  State- Rajasthan",
    "lat": "26.915145",
    "lng": "70.916403",
    "googleMapURL": "https://goo.gl/maps/8cbqKwTj5JjsToJt9",
    "jainSite": "https://jainsite.com/jainism_post/61-sankatharan-parshwanath/"
  },
  {
    "sr": "62",
    "name": "Shri Kumkumarol Parshwanath",
    "hi-Name": "श्री कुंकुमरोल पार्श्वनाथ",
    "city": "Jalore",
    "state": "Rajasthan",
    "address": "Shri Kumkumrole Parshvanath Jain Shwetambar Tirth, Shri Swarnagiri Jain Shwetambar Tirth Pedhi, Post: Jalore: 343001, District:Jalore, State: Rajasthan",
    "lat": "25.343925",
    "lng": "72.619028",
    "googleMapURL": "https://goo.gl/maps/deca4g7fV2ET72767",
    "jainSite": "https://jainsite.com/jainism_post/62-kumkumroal-parshwanath/"
  },
  {
    "sr": "63",
    "name": "Shri Ashapuran Parshwanath",
    "hi-Name": "श्री आशापूरण पार्श्वनाथ",
    "city": "Noon",
    "state": "Rajasthan",
    "address": "Shri Ashapuran Parshvanath Shwetambar Jain Tirth, Post:Nun, Via – Kalindri, District: Sirohi, State: Rajasthan",
    "lat": "24.898739",
    "lng": "72.57224",
    "googleMapURL": "https://goo.gl/maps/xCAAAVaA7bPuNGg1A",
    "jainSite": "https://jainsite.com/jainism_post/63aashapuran-parshwanath/"
  },
  {
    "sr": "64",
    "name": "Shri Shirodiya Parshwanath",
    "hi-Name": "श्री सिरोडीया पार्श्वनाथ",
    "city": "Shirodi Moti",
    "state": "Rajasthan",
    "address": "Shri Sirodiya (Godiji) Parshvanath Shwetambar Jain Tirth, Post: Sirodi (Moti) – 307511. via - Anadara, Taluk: Devdar, Station: Abu Road, District: Sirodi, State: Rajasthan",
    "lat": "24.705983",
    "lng": "72.683806",
    "googleMapURL": "https://goo.gl/maps/9msvZAbFSuwPppPNA",
    "jainSite": "https://jainsite.com/jainism_post/64-shirodiya-parshwanath/"
  },
  {
    "sr": "65",
    "name": "Shri Hamirpura Parshwanath",
    "hi-Name": "श्री हमीरपुरा पार्श्वनाथ",
    "city": "Hamirpur",
    "state": "Rajasthan",
    "address": "Shri Mirpur Parshvanath Shwetambat Jain Tirth,  Post: Mirpur – 307 001. District: Sirohi, Rajasthan",
    "lat": "24.783658",
    "lng": "72.785804",
    "googleMapURL": "https://goo.gl/maps/TCgxeTwkakrpzkja9",
    "jainSite": "https://jainsite.com/jainism_post/65-hamirpura-parshwanath/"
  },
  {
    "sr": "66",
    "name": "Shri Posli Parshwanath",
    "hi-Name": "श्री पोसली पार्श्वनाथ",
    "city": "Posalia",
    "state": "Rajasthan",
    "address": "Shri Posaliya Parshvanath Shwetambar Jain Tirth, Sirohi ka Vas, Post: Posaliya, Station: Eranpura, via Shivganj, District: Sirohi – 307 028. State: Rajasthan",
    "lat": "25.084214",
    "lng": "72.983711",
    "googleMapURL": "https://goo.gl/maps/FsHVV6vvBj2A9qrr8",
    "jainSite": "https://jainsite.com/jainism_post/66-posali-parshwanath/"
  },
  {
    "sr": "67",
    "name": "Shri Kachhulika Parshwanath",
    "hi-Name": "श्री कच्छुलिका पार्श्वनाथ",
    "city": "Kachholi",
    "state": "Rajasthan",
    "address": "Shri Kachholi Jain Sangh, Post: Kacchuli – 307 023, Station: Swarupganj, Tehsil:Pindwada, District: Sirohi,, State: Rajasthan",
    "lat": "24.642127",
    "lng": "72.885371",
    "googleMapURL": "https://goo.gl/maps/QfGxTkbBiCCbYAWPA",
    "jainSite": "https://jainsite.com/jainism_post/67-kachulika-parshwanath/"
  },
  {
    "sr": "68",
    "name": "Shri Dada Parshwanath",
    "hi-Name": "श्री दादा पार्श्वनाथ",
    "city": "Mori Beda",
    "state": "Rajasthan",
    "address": "Shri Dada Parshvanath Jain Tirth, c/o Shri Jain Shwetambar Murtipujak Sangh, Station: Mori Beda, Taluk: Shivganj, District: Sirohi, State: Rajasthan",
    "lat": "24.998184",
    "lng": "73.216722",
    "googleMapURL": "https://goo.gl/maps/fVjipWqsbYkqKJkn9",
    "jainSite": "https://jainsite.com/jainism_post/68-dada-parshwanath/"
  },
  {
    "sr": "69",
    "name": "Shri Sesli Parshwanath",
    "hi-Name": "श्री सेसली पार्श्वनाथ",
    "city": "Sesli",
    "state": "Rajasthan",
    "address": "Shri Sesali Parshvanath Shwetambar Jain Tirth Pedhi, Post: Sesali-306 701, Station: Falna, Taluk: Bali, District: Pali, State – Rajasthan",
    "lat": "25.158998",
    "lng": "73.312927",
    "googleMapURL": "https://goo.gl/maps/47KMu26Je3SqHNZ2A",
    "jainSite": "https://jainsite.com/jainism_post/69-seshli-parshwanath/"
  },
  {
    "sr": "70",
    "name": "Shri Ranakpura Parshwanth",
    "hi-Name": "श्री राणकपुरा पार्श्वनाथ",
    "city": "Ranakpur",
    "state": "Rajasthan",
    "address": "Shri Ranakpur Parshvanath Shwetambar Jain Tirth, Sheth Shri Anandji Kalyanji Pedhi, Post: Ranakpur – 306 702, District: Pali, Station: Faalna, State – Rajasthan",
    "lat": "25.115685",
    "lng": "73.472871",
    "googleMapURL": "https://goo.gl/maps/RaykM2CLb7QUrHrX9",
    "jainSite": "https://jainsite.com/jainism_post/70-ranakpura-parshwanath/"
  },
  {
    "sr": "71",
    "name": "Shri Sogathiya Parshwanath",
    "hi-Name": "श्री सोगथिया पार्श्वनाथ",
    "city": "Narlai",
    "state": "Rajasthan",
    "address": "Shri Sogatiya Parshvanath Shwetambar Jain Tirth, Post: Narlai, via – Desuri, District: Pali, State: Rajasthan -306 703",
    "lat": "25.318874",
    "lng": "73.540754",
    "googleMapURL": "https://goo.gl/maps/zevcvhgCZzvysFZH9",
    "jainSite": "https://jainsite.com/jainism_post/71-songthiya-parshwanath/"
  },
  {
    "sr": "72",
    "name": "Shri Varkana Parshwanath",
    "hi-Name": "श्री वरकाणा पार्श्वनाथ",
    "city": "Varkana",
    "state": "Rajasthan",
    "address": "Shri Varkana Parshwnath Jain Shwetambar Tirth Pedhi, Varkana: 306 601, District: Pali, Rajasthan",
    "lat": "25.342417",
    "lng": "73.357135",
    "googleMapURL": "https://goo.gl/maps/ZZCNHTYexiYko3Ya8",
    "jainSite": "https://jainsite.com/jainism_post/72-varkana-parshwanath/"
  },
  {
    "sr": "73",
    "name": "Shri Navlakha Parshwanath",
    "hi-Name": "श्री नवलखा पार्श्वनाथ",
    "city": "Pali",
    "state": "Rajasthan",
    "address": "Shri Navalchand Suvratchand Jain Pedhi, Gujarati Katla, Pali : 306401, Dist. : Pali, Rajasthan",
    "lat": "25.771648",
    "lng": "73.326928",
    "googleMapURL": "https://goo.gl/maps/A5deTy791ZkWT28HA",
    "jainSite": "https://jainsite.com/jainism_post/73-navlakha-parhwanath/"
  },
  {
    "sr": "74",
    "name": "Shri Swayambhu Parshwanath",
    "hi-Name": "श्री स्वयंभू पार्श्वनाथ",
    "city": "Kaparda",
    "state": "Rajasthan",
    "address": "Shri Swayambhu Parshvanath Shwetambar Jain Tirth, Post: Kaparada – 342 605, via Bhavi, Tehsil: Bilada, District: Jodhpur, State: Rajasthan",
    "lat": "26.271028",
    "lng": "73.47898",
    "googleMapURL": "https://goo.gl/maps/UAEq78wtdTf8pmbK6",
    "jainSite": "https://jainsite.com/jainism_post/74-svayambhu-parshwanath/"
  },
  {
    "sr": "75",
    "name": "Shri Falvruddhi Parshwanath",
    "hi-Name": "श्री फल्वृद्धि पार्श्वनाथ",
    "city": "Merta Road - Nagor",
    "state": "Rajasthan",
    "address": "Shri Falvruddhi Parshvanath Tirth Trust,  Post: Medata Road,  Tehsil: Medata city,  District: Nagour: 341511, State : Rajasthan",
    "lat": "26.722685",
    "lng": "73.920181",
    "googleMapURL": "https://goo.gl/maps/2EjsgL3W6NxQzxV38",
    "jainSite": "https://jainsite.com/jainism_post/75-falvruddhi-parshwanath/"
  },
  {
    "sr": "76",
    "name": "Shri Vijay Chintamani Parshwanath",
    "hi-Name": "श्री विजय चिंतामणि पार्श्वनाथ",
    "city": "Merta City - Nagor",
    "state": "Rajasthan",
    "address": "Shri Vijay Chintamani Parshvanath Jain Temple, Bambavadi, Jain Gardens,  Post: Medta City, District: Nagaur – 341 510.  State: Rajasthan",
    "lat": "26.644759",
    "lng": "74.030747",
    "googleMapURL": "https://goo.gl/maps/5q6rB28zDyYgpRsf7",
    "jainSite": "https://jainsite.com/jainism_post/76-vijay-chintamani-parshwanath/"
  },
  {
    "sr": "77",
    "name": "Shri Mandovra Parshwanath",
    "hi-Name": "श्री मंडोवरा पार्श्वनाथ",
    "city": "Mundhwa",
    "state": "Rajasthan",
    "address": "Shri Mandovara Parshvanath Jain Swetambar Tirth, Mundava, Dist : Pali, State : Rajasthan-306306",
    "lat": "25.967585",
    "lng": "73.851024",
    "googleMapURL": "https://goo.gl/maps/A3ygUQQm8hKEXbnLA",
    "jainSite": "https://jainsite.com/jainism_post/77-mandovra-parshwanath/"
  },
  {
    "sr": "78",
    "name": "Shri Kareda Parshwanath",
    "hi-Name": "",
    "city": "Kareda",
    "state": "",
    "address": "",
    "lat": "24.853145",
    "lng": "74.205988",
    "googleMapURL": "https://goo.gl/maps/H7tPQCVAk3w7gP7cA",
    "jainSite": "https://jainsite.com/jainism_post/78-kareda-parshwanath/"
  },
  {
    "sr": "79",
    "name": "Shri Vahi Parshwanath",
    "hi-Name": "श्री वही पार्श्वनाथ",
    "city": "Malhargarh",
    "state": "Madhya Pradesh",
    "address": "Shri Vahi Parshvanath Shwetambar Jain Tirth,  Post: Vahi – 458 664,  Station:  Pipaliya Mandi, District: Mandsaur,  State: Madhya Pradesh",
    "lat": "24.172491",
    "lng": "74.993558",
    "googleMapURL": "https://goo.gl/maps/xFCvx8RcjvFwKGgp9",
    "jainSite": "https://jainsite.com/jainism_post/79-vahi-parshwanath/"
  },
  {
    "sr": "80",
    "name": "Shri Navkhanda Parshwanath",
    "hi-Name": "श्री नवखंडा पार्श्वनाथ",
    "city": "Ghogha",
    "state": "Gujarat",
    "address": "Sheth Kala Mitha Ni Pedhi, Navakhanda Parshvanath Jain Derasar, Gogha : 364110, Dist. Bhavnagar, Gujarat",
    "lat": "21.691368",
    "lng": "72.272445",
    "googleMapURL": "https://goo.gl/maps/rBMD9AAetbUK6qZp9",
    "jainSite": "https://jainsite.com/jainism_post/80-navkhanda-parshwanath/"
  },
  {
    "sr": "81",
    "name": "Shri Nageshwar Parshwanath",
    "hi-Name": "श्री नागेश्वर पार्श्वनाथ",
    "city": "Unhel",
    "state": "Rajasthan",
    "address": "Shri Jain Swetambar Nageshvar Parshvanath Tirth Pedhi, Post: Unhel – 326 515,  Station: Chowmahala,  District: Zalawad.  State : Rajasthan",
    "lat": "23.825944",
    "lng": "75.593405",
    "googleMapURL": "https://goo.gl/maps/twQzEpYQsUyyhuBU9",
    "jainSite": "https://jainsite.com/jainism_post/81-nageshwar-parshwanath/"
  },
  {
    "sr": "82",
    "name": "Shri Nakoda Parshwanath",
    "hi-Name": "श्री नाकोडा पार्श्वनाथ",
    "city": "Nakodaji",
    "state": "Rajasthan",
    "address": "Shri Jain Shwetambar Nakoda Parshvanath Tirth, Post: Mevanagar, Balotara: 344 025  District: Barmer, Rajasthan",
    "lat": "25.788207",
    "lng": "72.153044",
    "googleMapURL": "https://goo.gl/maps/Nn7DE3WgcP3NR1ev6",
    "jainSite": "https://jainsite.com/jainism_post/82-nakoda-parshwanath/"
  },
  {
    "sr": "83",
    "name": "Shri Ajahara Parshwanath",
    "hi-Name": "श्री अजाहरा पार्श्वनाथ",
    "city": "Una",
    "state": "Gujarat",
    "address": "Shri Ajahara Parshanath Panchtirth Jain Karkhana Pedhi, Village: Ajahara, Post: Delwada- 362 510. Taluk: Una, District: Junagadh, Gujarat",
    "lat": "20.791469",
    "lng": "71.064619",
    "googleMapURL": "https://goo.gl/maps/NJYjUjzc2NSA7P1BA",
    "jainSite": "https://jainsite.com/jainism_post/83-ajahara-parshwanath/"
  },
  {
    "sr": "84",
    "name": "Shri Sherisa Parshwanath",
    "hi-Name": " श्री शेरिसा पार्श्वनाथ",
    "city": "Sherisa",
    "state": "Gujarat",
    "address": "Shri Sherisa Parshvanath Shwetambar Jain Tirth,  Sheth Shri Anandji Kalyanji Pedhi, Post: Sherisa, Taluk: Kalol, Distric: Gandhinagar, Gujarat",
    "lat": "23.196464",
    "lng": "72.470037",
    "googleMapURL": "https://goo.gl/maps/HfDdqQFjqBfxwkTW7",
    "jainSite": "https://jainsite.com/jainism_post/84-serisha-parshwanath/"
  },
  {
    "sr": "85",
    "name": "Shri Sammetshikhar Parshwanath",
    "hi-Name": "श्री सम्मेतशिखर पार्श्वनाथ",
    "city": "Madhuvan",
    "state": "Jharkhand",
    "address": "Shri Sammetshikar Parshvanath ShwetambarJain Tirth,  Village: Madhuban, Post: Shikarji – 825 329, District:Giridih, State: Jharkhand, India",
    "lat": "23.963941",
    "lng": "86.128462",
    "googleMapURL": "https://goo.gl/maps/MrLEWgCF8ckMvssz6",
    "jainSite": "https://jainsite.com/jainism_post/85-sammetshikhar-parshwanath/"
  },
  {
    "sr": "86",
    "name": "Shri Bhateva Parshwanath",
    "hi-Name": "श्री भटेवा पार्श्वनाथ",
    "city": "Chanasma",
    "state": "Gujarat",
    "address": "Shri Chanasma Jain Mahajan Ni Pedhi, Moti Vaniyavad, Chanasma – 384 220. District: Patan, Gujarat",
    "lat": "23.714991",
    "lng": "72.11347",
    "googleMapURL": "https://goo.gl/maps/LQQEueJT9bvhemkp9",
    "jainSite": "https://jainsite.com/jainism_post/86-bhateva-parshwanath/"
  },
  {
    "sr": "87",
    "name": "Shri Uvasaggaharam Parshwanath",
    "hi-Name": "श्री उवसग्गहरं पार्श्वनाथ",
    "city": "Nagpura - Durg",
    "state": "Chhattisgarh",
    "address": "Shri Uvasaggaharam Parshvanath Shwetambar Jain Tirth, Post: Nagpura, District: Durg, State: Chhattisgarh – 491 001",
    "lat": "21.231212",
    "lng": "81.214595",
    "googleMapURL": "https://goo.gl/maps/Eoa8mgQYthviTem66",
    "jainSite": "https://jainsite.com/jainism_post/87-uvsaggaharam-parshwanath/"
  },
  {
    "sr": "88",
    "name": "Shri Alaukik Parshwanath",
    "hi-Name": " श्री अलौकिक पार्श्वनाथ",
    "city": "Hasampura",
    "state": "Madhya Pradesh",
    "address": "Shri Aloukik Parshvanath Jain Svetambar Tirtth Trust,  Hasampura,  Post: Talod – 456 006.  District: Ujjain, State: Madhya Pradesh",
    "lat": "23.099429",
    "lng": "75.728549",
    "googleMapURL": "https://goo.gl/maps/v7KCmRK9JS1uJrvWA",
    "jainSite": "https://jainsite.com/jainism_post/88-aloukik-parshwanath/"
  },
  {
    "sr": "89",
    "name": "Shri Kalpadrum Parshwanath",
    "hi-Name": "श्री कल्पद्रुम पार्श्वनाथ",
    "city": "Mathura",
    "state": "Uttar Pradesh",
    "address": "Shri Kalpadrum Parshvanath Jain Shwetambar Temple, 792, Ghia Mandi, Mathura-281001, State- Uttar Pradesh, India",
    "lat": "27.505776",
    "lng": "77.679283",
    "googleMapURL": "https://goo.gl/maps/vRehjDtBXDxbg5Ye8",
    "jainSite": "https://jainsite.com/jainism_post/89-kalpdrum-parshwanath/"
  },
  {
    "sr": "90",
    "name": "Shri Kukdeshwar Parshwanath",
    "hi-Name": "श्री कुकडेश्वर पार्श्वनाथ",
    "city": "Kukdeshwar",
    "state": "Madhya Pradesh",
    "address": "Shri Kukadeshwar Parshvanath Shwetambar Jain Mandir,  Post: Kukadeshwar- 458 116.  District: Nimach,  State: Madhya Pradesh",
    "lat": "24.481378",
    "lng": "75.266842",
    "googleMapURL": "https://goo.gl/maps/8DNSuVBdV2Hjk1yj9",
    "jainSite": "https://jainsite.com/jainism_post/90-kukdeshwar-parshwanath/"
  },
  {
    "sr": "91",
    "name": "Shri Bhuvan Parshwanath",
    "hi-Name": "श्री भुवन पार्श्वनाथ",
    "city": "Khambhat",
    "state": "Gujarat",
    "address": "Shri Bhuvan Parshvanath Shwetambar Jain Tirth,  Bhoyara Pada,  Post: Khambhat, District: Anand, Gujarat",
    "lat": "22.312388",
    "lng": "72.618421",
    "googleMapURL": "https://goo.gl/maps/QjTfRWiw7yTQtaGm7",
    "jainSite": "https://jainsite.com/jainism_post/91-bhuvan-parshwanath/"
  },
  {
    "sr": "92",
    "name": "Shri Ravan Parshwanath",
    "hi-Name": "श्री रावण पार्श्वनाथ",
    "city": "Alvar",
    "state": "Rajasthan",
    "address": "Shri Ravan Parshvanath Shwetambar Jain Tirth,  Birbal Ka Mohalla,  Post: Alvar – 301 001,  State: Rajasthan",
    "lat": "27.565642",
    "lng": "76.600211",
    "googleMapURL": "https://goo.gl/maps/x7S4YqBfKiKnA2VS7",
    "jainSite": "https://jainsite.com/jainism_post/92-ravan-parshwanath/"
  },
  {
    "sr": "93",
    "name": "Shri Kamitpuran Parshwanath",
    "hi-Name": "श्री कामितपूरण पार्श्वनाथ",
    "city": "Unhel",
    "state": "Madhya Pradesh",
    "address": "Shri Parshvanath Jain Swetambar Murtipujak Sangh Pedhi,  Post: Unhel-456221, Taluk: Khacrod, District: Ujjain,  State: Madhya Pradesh",
    "lat": "23.338027",
    "lng": "75.559259",
    "googleMapURL": "https://goo.gl/maps/rWw4xTq9Z78JEr8D8",
    "jainSite": "https://jainsite.com/jainism_post/93-kamitpuran-parshwanath/"
  },
  {
    "sr": "94",
    "name": "Shri Avanti Parshwanath",
    "hi-Name": "श्री अवंती पार्श्वनाथ",
    "city": "Ujjain",
    "state": "Madhya Pradesh",
    "address": "Shri Avanti Parshvanath Jain Shwetambar  Murtipujak  Marwari Samaj Trust, Anant Peth, Dani Darwaja, Ujjain – 456001. State : Madhya Pradesh",
    "lat": "23.189754",
    "lng": "75.767226",
    "googleMapURL": "https://goo.gl/maps/LQT5g3Z4ziPih6mD9",
    "jainSite": "https://jainsite.com/jainism_post/94-avanti-parshwanath/"
  },
  {
    "sr": "95",
    "name": "Shri Samina Parshwanath",
    "hi-Name": "श्री समीना पार्शवनाथ",
    "city": "Udaipur",
    "state": "Rajasthan",
    "address": "Shri Samina Parshvanath Shwetambar Jain Derasar, Samina Kheda: 313 001, District: Udaipur, Rajasthan",
    "lat": "24.582814",
    "lng": "73.692294",
    "googleMapURL": "https://goo.gl/maps/tAALLPot6U4Tz8Kn8",
    "jainSite": "https://jainsite.com/jainism_post/95-samina-parshwanath/"
  },
  {
    "sr": "96",
    "name": "Shri Chanda Parshwanath",
    "hi-Name": "श्री चंदा पार्श्वनाथ",
    "city": "Udaipur",
    "state": "Rajasthan",
    "address": "Shri Chanda Parshvanath Jain Derasar,  Thate Ragli no Bahar, Palace Road, near Ghanta ghar,  Udaipur: 313001, State:  Rajasthan",
    "lat": "24.581021",
    "lng": "73.684812",
    "googleMapURL": "https://goo.gl/maps/cPqxCrVwLdNBDFkPA",
    "jainSite": "https://jainsite.com/jainism_post/96-chanda-parshwanath/"
  },
  {
    "sr": "97",
    "name": "Shri Makshi Parshwanath",
    "hi-Name": "श्री मक्षी पार्श्वनाथ",
    "city": "Makshi",
    "state": "Madhya Pradesh",
    "address": "Shri Makshi Parshvanath Shwetambar Jain Mandir, Shri Anandji Kalyanji Pedhi,  Post: Makshi – 465 106,  District: Shajapur,  State: Madhya Pradesh",
    "lat": "23.259141",
    "lng": "76.144534",
    "googleMapURL": "https://goo.gl/maps/kYf3wNg6hz3oZRhV8",
    "jainSite": "https://jainsite.com/jainism_post/97-makshi-parshwanath/"
  },
  {
    "sr": "98",
    "name": "Shri Antriksh Parshwanath",
    "hi-Name": "श्री अन्तरिक्ष पार्श्वनाथ",
    "city": "Aakola",
    "state": "Maharashtra",
    "address": "Shri Antariksh Parshvanath Shwetambar Jain Tirth, Shri Antariksh Parshvanath Maharaj Sansthan, Post: Shirpur, Taluk: Malegaon, District: Washim – 444 504, State: Maharashtra",
    "lat": "20.168965",
    "lng": "76.960642",
    "googleMapURL": "https://goo.gl/maps/CM1mYeG4YSYkxG6c8",
    "jainSite": "https://jainsite.com/jainism_post/98-antriksh-parshwanath/"
  },
  {
    "sr": "99",
    "name": "Shri Jagvallabh Parshwanath",
    "hi-Name": "श्री जगवल्लभ पार्श्वनाथ",
    "city": "Kolhapur",
    "state": "Maharashtra",
    "address": "Shri Jagvallabh Parshvanath Jain Shwetambar Mandir Trust,  Kumbhojgiri Tirth,  Post: Bahubali – 416113,  District: Kolhapur,  State:  Maharashtra",
    "lat": "16.806866",
    "lng": "74.418473",
    "googleMapURL": "https://goo.gl/maps/NvHHiycohBcuNeh37",
    "jainSite": "https://jainsite.com/jainism_post/99-jagvallabh-parshwanath/"
  },
  {
    "sr": "100",
    "name": "Shri Girua Parshwanath",
    "hi-Name": "श्री गिरुआ पार्श्वनाथ",
    "city": "Amalner",
    "state": "Maharashtra",
    "address": "Shri Girua Parshvanath Shwetambar Jain Tirth,  Sharaf Bazaar, Post: Amalner – 425401. District: Jalgaon,  Maharashtra",
    "lat": "21.041844",
    "lng": "75.065155",
    "googleMapURL": "https://goo.gl/maps/akACBkp5hVVQnCkz5",
    "jainSite": "https://jainsite.com/jainism_post/100-girua-parshvanath/"
  },
  {
    "sr": "101",
    "name": "Shri Manovanchhit Parshwanath",
    "hi-Name": "श्री मनोवांछित पार्श्वनाथ",
    "city": "Ner - Dhuliya",
    "state": "Maharashtra",
    "address": "Shri Manovanchhit Parshvanath Jain Shwetambar Murtipujak Sangh, Post: Ner – 424303, District: Dhulia, State – Maharashtra",
    "lat": "20.943053",
    "lng": "74.515849",
    "googleMapURL": "https://goo.gl/maps/asfRiPDDUSHTpEeH8",
    "jainSite": "https://jainsite.com/jainism_post/101-manovanchit-parshwanath/"
  },
  {
    "sr": "102",
    "name": "Shri Vimal Parshwanath",
    "hi-Name": "श्री विमल पार्श्वनाथ",
    "city": "Chhani",
    "state": "Gujarat",
    "address": "Shri Vimal Parshvanath Shwetambar Jain Tirth, Vaniyawad, Post: Chhani, District:Vadodara, Gujarat",
    "lat": "22.361433",
    "lng": "73.170523",
    "googleMapURL": "https://goo.gl/maps/MYPRD5X2RnbKC8cRA",
    "jainSite": "https://jainsite.com/jainism_post/102-vimal-parshwanath/"
  },
  {
    "sr": "103",
    "name": "Shri Vighnahara Parshwanath",
    "hi-Name": "श्री विघ्नहरा पार्श्वनाथ",
    "city": "Surat",
    "state": "Gujarat",
    "address": "Shri Vighnahara Parshvanath Shwetambar Jain Tirth, Shri Adi – Neminath Jain Derasar pedi, Uttamram Street, Nisha Falia, Post: Rander, Surat-395 005, Gujarat",
    "lat": "21.222657",
    "lng": "72.795387",
    "googleMapURL": "https://goo.gl/maps/z3ZgFP1BY4sCd33D9",
    "jainSite": "https://jainsite.com/jainism_post/103-vighnahara-parshwanath/"
  },
  {
    "sr": "104",
    "name": "Shri Mahadeva Parshwanath",
    "hi-Name": "श्री महादेव पार्श्वनाथ",
    "city": "Patan",
    "state": "Gujarat",
    "address": "Shri Mahadeva Parshvanath Shwetambar Jain Tirth, Khetarvasi, Post: Patan, District: Patan, Gujarat-384 265",
    "lat": "23.848807",
    "lng": "72.113147",
    "googleMapURL": "https://goo.gl/maps/9gUuevXdZUxhjUoM9",
    "jainSite": "https://jainsite.com/jainism_post/104-mahadeva-parshwnath/"
  },
  {
    "sr": "105",
    "name": "Shri Aananda Parshwanath",
    "hi-Name": "श्री आनंदा पार्श्वनाथ",
    "city": "Umbari",
    "state": "Gujarat",
    "address": "Shri Ananda Parshvanath Shwetambar Jain Tirth,  Post: Umbri, Taluk: Kankrej, District: Banaskantha – 385 550, Gujarat",
    "lat": "24.054874",
    "lng": "72.000758",
    "googleMapURL": "https://goo.gl/maps/vANZqdxdSJeTjrGz9",
    "jainSite": "https://jainsite.com/jainism_post/105-aananda-parshwanath/"
  },
  {
    "sr": "106",
    "name": "Shri Charup Parshwanath",
    "hi-Name": "श्री चारूप पार्श्वनाथ",
    "city": "Charup",
    "state": "Gujarat",
    "address": "Shri Charup Jain Shwetambar Shri Shyamala Parshvanath Mahatirth Pedhi, Charup: 384 285. District: Patan, Gujarat",
    "lat": "23.940658",
    "lng": "72.12647",
    "googleMapURL": "https://goo.gl/maps/F3MeB5ZKjendEYFr5",
    "jainSite": "https://jainsite.com/jainism_post/106-charup-parshwanath/"
  },
  {
    "sr": "107",
    "name": "Shri Chintamani Parshwanath",
    "hi-Name": "श्री चिंतामणि पार्श्वनाथ",
    "city": "Nasik",
    "state": "Maharashtra",
    "address": "Shri Chitamani Parshvanath Jain Shwetambar Tirth, Parshvanath Lane, Bhadrakali, Nasik city- 422001 State – Maharashtra",
    "lat": "20.001383",
    "lng": "73.790839",
    "googleMapURL": "https://goo.gl/maps/tBUQosqQyoYSqwMv6",
    "jainSite": "https://jainsite.com/jainism_post/107-chintamani-parshwanath/"
  },
  {
    "sr": "108",
    "name": "Shri Godiji Parshwanath",
    "hi-Name": "श्री गोडीजी पार्श्वनाथ",
    "city": "Mumbai",
    "state": "Maharashtra",
    "address": "Shri Godiji Parshvanath Shwetambar Jain Tirth Pedhi, Vijay Vallabh Chowk, Pydhuni, Mumbai – 400 004. State: Maharashtra",
    "lat": "18.953738",
    "lng": "72.831198",
    "googleMapURL": "https://goo.gl/maps/AHohuDNuhFQbwxn29",
    "jainSite": "https://jainsite.com/jainism_post/108-godiji-parshwanath/"
  }
]
